{
"type": "FeatureCollection",
"name": "Ciudades Dodecapolis Etrusca",
"crs": { "type": "name", "properties": { "name": "urn:ogc:def:crs:OGC:1.3:CRS84" } },
"features": [
{ "type": "Feature", "properties": { "name": "Fufluna", "lat": 42.988419497468001, "lon": 10.4899477958679, "notes": null }, "geometry": { "type": "Point", "coordinates": [ 10.4899477958679, 42.988419497468001 ] } },
{ "type": "Feature", "properties": { "name": "Vatl", "lat": 42.859458726947601, "lon": 10.972101688385001, "notes": null }, "geometry": { "type": "Point", "coordinates": [ 10.972101688385001, 42.859458726947601 ] } },
{ "type": "Feature", "properties": { "name": "Perusia", "lat": 43.111189291610899, "lon": 12.3899173736572, "notes": null }, "geometry": { "type": "Point", "coordinates": [ 12.3899173736572, 43.111189291610899 ] } },
{ "type": "Feature", "properties": { "name": "Rusellae", "lat": 42.827701584611098, "lon": 11.1594700813293, "notes": null }, "geometry": { "type": "Point", "coordinates": [ 11.1594700813293, 42.827701584611098 ] } },
{ "type": "Feature", "properties": { "name": "Vels", "lat": 42.021338606293199, "lon": 12.3905181884766, "notes": null }, "geometry": { "type": "Point", "coordinates": [ 12.3905181884766, 42.021338606293199 ] } },
{ "type": "Feature", "properties": { "name": "Kaisra", "lat": 42.002485805000902, "lon": 12.1077704429626, "notes": null }, "geometry": { "type": "Point", "coordinates": [ 12.1077704429626, 42.002485805000902 ] } },
{ "type": "Feature", "properties": { "name": "Tarchna", "lat": 42.254529848948401, "lon": 11.7581820487976, "notes": null }, "geometry": { "type": "Point", "coordinates": [ 11.7581820487976, 42.254529848948401 ] } },
{ "type": "Feature", "properties": { "name": "Velx", "lat": 42.418886624564898, "lon": 11.6316676139832, "notes": null }, "geometry": { "type": "Point", "coordinates": [ 11.6316676139832, 42.418886624564898 ] } },
{ "type": "Feature", "properties": { "name": "Velzna", "lat": 42.7164506353581, "lon": 12.111568450927701, "notes": null }, "geometry": { "type": "Point", "coordinates": [ 12.111568450927701, 42.7164506353581 ] } },
{ "type": "Feature", "properties": { "name": "Clevsin", "lat": 43.016367904279598, "lon": 11.9487047195435, "notes": null }, "geometry": { "type": "Point", "coordinates": [ 11.9487047195435, 43.016367904279598 ] } },
{ "type": "Feature", "properties": { "name": "Velathri", "lat": 43.401602154117697, "lon": 10.860071182251, "notes": null }, "geometry": { "type": "Point", "coordinates": [ 10.860071182251, 43.401602154117697 ] } },
{ "type": "Feature", "properties": { "name": "Aritim", "lat": 43.471273575179197, "lon": 11.8630456924438, "notes": null }, "geometry": { "type": "Point", "coordinates": [ 11.8630456924438, 43.471273575179197 ] } }
]
}
