{
"type": "FeatureCollection",
"name": "Poleis Krete",
"crs": { "type": "name", "properties": { "name": "urn:ogc:def:crs:OGC:1.3:CRS84" } },
"features": [
{ "type": "Feature", "properties": { "name": "Phalasarna", "lat": 35.5108965, "lon": 23.57030765, "notes": null }, "geometry": { "type": "Point", "coordinates": [ 23.57030765, 35.5108965 ] } },
{ "type": "Feature", "properties": { "name": "Polyrrenia", "lat": 35.458634560299998, "lon": 23.6564117108, "notes": null }, "geometry": { "type": "Point", "coordinates": [ 23.6564117108, 35.458634560299998 ] } },
{ "type": "Feature", "properties": { "name": "Hyrtakina", "lat": 35.274179, "lon": 23.73635, "notes": null }, "geometry": { "type": "Point", "coordinates": [ 23.73635, 35.274179 ] } },
{ "type": "Feature", "properties": { "name": "Elyros", "lat": 35.2875151, "lon": 23.7945601, "notes": null }, "geometry": { "type": "Point", "coordinates": [ 23.7945601, 35.2875151 ] } },
{ "type": "Feature", "properties": { "name": "Polichna", "lat": 35.487137, "lon": 23.895571, "notes": null }, "geometry": { "type": "Point", "coordinates": [ 23.895571, 35.487137 ] } },
{ "type": "Feature", "properties": { "name": "Kydonia", "lat": 35.515775, "lon": 24.01869, "notes": null }, "geometry": { "type": "Point", "coordinates": [ 24.01869, 35.515775 ] } },
{ "type": "Feature", "properties": { "name": "Minoa", "lat": 35.501793, "lon": 24.165177, "notes": null }, "geometry": { "type": "Point", "coordinates": [ 24.165177, 35.501793 ] } },
{ "type": "Feature", "properties": { "name": "Aptera", "lat": 35.462662373999997, "lon": 24.141397328899998, "notes": null }, "geometry": { "type": "Point", "coordinates": [ 24.141397328899998, 35.462662374 ] } },
{ "type": "Feature", "properties": { "name": "Poikilasion", "lat": 35.242183, "lon": 23.879076, "notes": null }, "geometry": { "type": "Point", "coordinates": [ 23.879076, 35.242183 ] } },
{ "type": "Feature", "properties": { "name": "Tarra", "lat": 35.236215, "lon": 23.970017, "notes": null }, "geometry": { "type": "Point", "coordinates": [ 23.970017, 35.236215 ] } },
{ "type": "Feature", "properties": { "name": "Phoinix", "lat": 35.1866272, "lon": 24.3466822, "notes": null }, "geometry": { "type": "Point", "coordinates": [ 24.3466822, 35.1866272 ] } },
{ "type": "Feature", "properties": { "name": "Phalanna", "lat": 35.264859, "lon": 24.508285, "notes": null }, "geometry": { "type": "Point", "coordinates": [ 24.508285, 35.264859 ] } },
{ "type": "Feature", "properties": { "name": "Korion", "lat": 35.131247, "lon": 24.674068, "notes": null }, "geometry": { "type": "Point", "coordinates": [ 24.674068, 35.131247 ] } },
{ "type": "Feature", "properties": { "name": "Pantomatrion", "lat": 35.387052, "lon": 24.603183, "notes": null }, "geometry": { "type": "Point", "coordinates": [ 24.603183, 35.387052 ] } },
{ "type": "Feature", "properties": { "name": "Sybrita", "lat": 35.2594353, "lon": 24.6401007, "notes": null }, "geometry": { "type": "Point", "coordinates": [ 24.6401007, 35.2594353 ] } },
{ "type": "Feature", "properties": { "name": "Eleutherna", "lat": 35.333109485000001, "lon": 24.6729133053, "notes": null }, "geometry": { "type": "Point", "coordinates": [ 24.6729133053, 35.333109485 ] } },
{ "type": "Feature", "properties": { "name": "Axos", "lat": 35.3080415, "lon": 24.8441326, "notes": null }, "geometry": { "type": "Point", "coordinates": [ 24.8441326, 35.3080415 ] } },
{ "type": "Feature", "properties": { "name": "Phaistos", "lat": 35.051189223800002, "lon": 24.814437994, "notes": null }, "geometry": { "type": "Point", "coordinates": [ 24.814437994, 35.051189223800002 ] } },
{ "type": "Feature", "properties": { "name": "Gortyna", "lat": 35.062107, "lon": 24.946943, "notes": null }, "geometry": { "type": "Point", "coordinates": [ 24.946943, 35.062107 ] } },
{ "type": "Feature", "properties": { "name": "Apellonia", "lat": 35.404896, "lon": 25.018525, "notes": null }, "geometry": { "type": "Point", "coordinates": [ 25.018525, 35.404896 ] } },
{ "type": "Feature", "properties": { "name": "Knosos", "lat": 35.297847, "lon": 25.163106, "notes": null }, "geometry": { "type": "Point", "coordinates": [ 25.163106, 35.297847 ] } },
{ "type": "Feature", "properties": { "name": "Eltynia", "lat": 35.2384257, "lon": 25.1853171, "notes": null }, "geometry": { "type": "Point", "coordinates": [ 25.1853171, 35.2384257 ] } },
{ "type": "Feature", "properties": { "name": "Priansos", "lat": 35.045887, "lon": 25.258393, "notes": null }, "geometry": { "type": "Point", "coordinates": [ 25.258393, 35.045887 ] } },
{ "type": "Feature", "properties": { "name": "Arkades", "lat": 35.080331, "lon": 25.282439, "notes": null }, "geometry": { "type": "Point", "coordinates": [ 25.282439, 35.080331 ] } },
{ "type": "Feature", "properties": { "name": "Lyktos", "lat": 35.2081, "lon": 25.3682, "notes": null }, "geometry": { "type": "Point", "coordinates": [ 25.3682, 35.2081 ] } },
{ "type": "Feature", "properties": { "name": "Biannos", "lat": 35.060832, "lon": 25.402881, "notes": null }, "geometry": { "type": "Point", "coordinates": [ 25.402881, 35.060832 ] } },
{ "type": "Feature", "properties": { "name": "Malla", "lat": 35.083064, "lon": 25.581903, "notes": null }, "geometry": { "type": "Point", "coordinates": [ 25.581903, 35.083064 ] } },
{ "type": "Feature", "properties": { "name": "Dreros", "lat": 35.2571791, "lon": 25.6276089, "notes": null }, "geometry": { "type": "Point", "coordinates": [ 25.6276089, 35.2571791 ] } },
{ "type": "Feature", "properties": { "name": "Milatos", "lat": 35.3173838, "lon": 25.578722, "notes": null }, "geometry": { "type": "Point", "coordinates": [ 25.578722, 35.3173838 ] } },
{ "type": "Feature", "properties": { "name": "Olous", "lat": 35.257679, "lon": 25.738816, "notes": null }, "geometry": { "type": "Point", "coordinates": [ 25.738816, 35.257679 ] } },
{ "type": "Feature", "properties": { "name": "Lato", "lat": 35.1785382, "lon": 25.65567205, "notes": null }, "geometry": { "type": "Point", "coordinates": [ 25.65567205, 35.1785382 ] } },
{ "type": "Feature", "properties": { "name": "Kamara", "lat": 35.190776, "lon": 25.71726, "notes": null }, "geometry": { "type": "Point", "coordinates": [ 25.71726, 35.190776 ] } },
{ "type": "Feature", "properties": { "name": "Oleros", "lat": 35.070797, "lon": 25.714223, "notes": null }, "geometry": { "type": "Point", "coordinates": [ 25.714223, 35.070797 ] } },
{ "type": "Feature", "properties": { "name": "Hierapytna", "lat": 35.0095285, "lon": 25.7387505, "notes": null }, "geometry": { "type": "Point", "coordinates": [ 25.7387505, 35.0095285 ] } },
{ "type": "Feature", "properties": { "name": "Syrinthos", "lat": 35.011493, "lon": 26.121005, "notes": null }, "geometry": { "type": "Point", "coordinates": [ 26.121005, 35.011493 ] } },
{ "type": "Feature", "properties": { "name": "Praisos", "lat": 35.123297496699998, "lon": 26.090539747800001, "notes": null }, "geometry": { "type": "Point", "coordinates": [ 26.090539747800001, 35.123297496699998 ] } },
{ "type": "Feature", "properties": { "name": "Itanos", "lat": 35.263259488499997, "lon": 26.262978576199998, "notes": null }, "geometry": { "type": "Point", "coordinates": [ 26.262978576199998, 35.263259488499997 ] } }
]
}
