{"type":"FeatureCollection","features":[{"type":"Feature","geometry":{"type":"Point","coordinates":[22.3741722106934,38.5184052883609]},"properties":{"name":"Amphissa","comp":"containing Roman Kingdom","lat":38.5184052883609,"lon":22.3741722106934},"bbox":[22.3741722106934,38.5184052883609,22.3741732106934,38.5184052883609]},{"type":"Feature","geometry":{"type":"Point","coordinates":[21.9188189506531,38.4155853965431]},"properties":{"name":"Eupalion","comp":"containing Roman Kingdom","lat":38.4155853965431,"lon":21.9188189506531},"bbox":[21.9188189506531,38.4155853965431,21.918819950653102,38.4155853965431]},{"type":"Feature","geometry":{"type":"Point","coordinates":[22.3577356338501,38.4780424415584]},"properties":{"name":"Myania","comp":"containing Roman Kingdom","lat":38.4780424415584,"lon":22.3577356338501},"bbox":[22.3577356338501,38.4780424415584,22.357736633850102,38.4780424415584]},{"type":"Feature","geometry":{"type":"Point","coordinates":[21.831271648407,38.3997293648314]},"properties":{"name":"Naupactus","comp":"containing Roman Kingdom","lat":38.3997293648314,"lon":21.831271648407,"GEOlayersNamingProp":"name"},"bbox":[21.831271648407,38.3997293648314,21.831272648407,38.3997293648314]},{"type":"Feature","geometry":{"type":"Point","coordinates":[22.0718550682068,38.3852911295998]},"properties":{"name":"Polis","comp":"containing Roman Kingdom","lat":38.3852911295998,"lon":22.0718550682068},"bbox":[22.0718550682068,38.3852911295998,22.071856068206802,38.3852911295998]},{"type":"Feature","geometry":{"type":"Point","coordinates":[22.2965168952942,38.3754846040891]},"properties":{"name":"Tolophon","comp":"containing Roman Kingdom","lat":38.3754846040891,"lon":22.2965168952942},"bbox":[22.2965168952942,38.3754846040891,22.2965178952942,38.3754846040891]},{"type":"Feature","geometry":{"type":"Point","coordinates":[22.3225021362305,38.4032354783948]},"properties":{"name":"Triteia","comp":"containing Roman Kingdom","lat":38.4032354783948,"lon":22.3225021362305},"bbox":[22.3225021362305,38.4032354783948,22.3225031362305,38.4032354783948]}],"properties":{"GEOlayersSrcRequireType":"geojson","lat":38.446944946225,"lon":22.102722429550198,"GEOlayersRenamed":"Polis Locrida Ozolia"},"bbox":[21.831271648407,38.3754846040891,22.3741732106934,38.5184052883609]}