{"type":"FeatureCollection","features":[{"type":"Feature","geometry":{"type":"Point","coordinates":[23.1523561477661,38.2945258460229]},"properties":{"name":"Thespiai","comp":"containing Roman Kingdom","lat":38.2945258460229,"lon":23.1523561477661,"GEOlayersDisplayName":"Thespiai"},"bbox":[23.1523561477661,38.2945258460229,23.1523571477661,38.2945258460229]},{"type":"Feature","geometry":{"type":"Point","coordinates":[23.0866098403931,38.378319045218]},"properties":{"name":"Haliartos","comp":"containing Roman Kingdom","lat":38.378319045218,"lon":23.0866098403931,"GEOlayersDisplayName":"Haliartos"},"bbox":[23.0866098403931,38.378319045218,23.0866108403931,38.378319045218]},{"type":"Feature","geometry":{"type":"Point","coordinates":[23.0753874778748,38.3282163504666]},"properties":{"name":"Askra","comp":"containing Roman Kingdom","lat":38.3282163504666,"lon":23.0753874778748,"GEOlayersDisplayName":"Askra"},"bbox":[23.0753874778748,38.3282163504666,23.0753884778748,38.3282163504666]},{"type":"Feature","geometry":{"type":"Point","coordinates":[23.2189607620239,38.4513369694477]},"properties":{"name":"Akraiphiai","comp":"containing Roman Kingdom","lat":38.4513369694477,"lon":23.2189607620239,"GEOlayersDisplayName":"Akraiphiai"},"bbox":[23.2189607620239,38.4513369694477,23.218961762023902,38.4513369694477]},{"type":"Feature","geometry":{"type":"Point","coordinates":[23.4516477584839,38.4976935007403]},"properties":{"name":"Anthedon","comp":"containing Roman Kingdom","lat":38.4976935007403,"lon":23.4516477584839,"GEOlayersDisplayName":"Anthedon"},"bbox":[23.4516477584839,38.4976935007403,23.451648758483902,38.4976935007403]},{"type":"Feature","geometry":{"type":"Point","coordinates":[22.9927110671997,38.5409992740408]},"properties":{"name":"Aspledon","comp":"containing Roman Kingdom","lat":38.5409992740408,"lon":22.9927110671997,"GEOlayersDisplayName":"Aspledon"},"bbox":[22.9927110671997,38.5409992740408,22.9927120671997,38.5409992740408]},{"type":"Feature","geometry":{"type":"Point","coordinates":[22.8873753547668,38.2511900995233]},"properties":{"name":"Chorsiai","comp":"containing Roman Kingdom","lat":38.2511900995233,"lon":22.8873753547668,"GEOlayersDisplayName":"Chorsiai"},"bbox":[22.8873753547668,38.2511900995233,22.8873763547668,38.2511900995233]},{"type":"Feature","geometry":{"type":"Point","coordinates":[22.9571127891541,38.3912029978698]},"properties":{"name":"coronea","comp":"containing Roman Kingdom","lat":38.3912029978698,"lon":22.9571127891541,"GEOlayersDisplayName":"coronea"},"bbox":[22.9571127891541,38.3912029978698,22.9571137891541,38.3912029978698]},{"type":"Feature","geometry":{"type":"Point","coordinates":[23.2046699523926,38.2682495290063]},"properties":{"name":"Eutresis","comp":"containing Roman Kingdom","lat":38.2682495290063,"lon":23.2046699523926,"GEOlayersDisplayName":"Eutresis"},"bbox":[23.2046699523926,38.2682495290063,23.2046709523926,38.2682495290063]},{"type":"Feature","geometry":{"type":"Point","coordinates":[23.2643222808838,38.4080109182493]},"properties":{"name":"Hylai","comp":"containing Roman Kingdom","lat":38.4080109182493,"lon":23.2643222808838,"GEOlayersDisplayName":"Hylai"},"bbox":[23.2643222808838,38.4080109182493,23.2643232808838,38.4080109182493]},{"type":"Feature","geometry":{"type":"Point","coordinates":[23.1121015548706,38.2082753082129]},"properties":{"name":"Kreusis","comp":"containing Roman Kingdom","lat":38.2082753082129,"lon":23.1121015548706,"GEOlayersDisplayName":"Kreusis"},"bbox":[23.1121015548706,38.2082753082129,23.1121025548706,38.2082753082129]},{"type":"Feature","geometry":{"type":"Point","coordinates":[22.8707242012024,38.4336314801262]},"properties":{"name":"Lebadeia","comp":"containing Roman Kingdom","lat":38.4336314801262,"lon":22.8707242012024,"GEOlayersDisplayName":"Lebadeia"},"bbox":[22.8707242012024,38.4336314801262,22.8707252012024,38.4336314801262]},{"type":"Feature","geometry":{"type":"Point","coordinates":[23.1821179389954,38.2544085305364]},"properties":{"name":"Leuktra","comp":"containing Roman Kingdom","lat":38.2544085305364,"lon":23.1821179389954,"GEOlayersDisplayName":"Leuktra"},"bbox":[23.1821179389954,38.2544085305364,23.1821189389954,38.2544085305364]},{"type":"Feature","geometry":{"type":"Point","coordinates":[22.9783129692078,38.4945782415556]},"properties":{"name":"Orchomernos","comp":"containing Roman Kingdom","lat":38.4945782415556,"lon":22.9783129692078,"GEOlayersDisplayName":"Orchomernos","GEOlayersLabelTemplateCompId":7497,"GEOlayersLabelTemplateCompName":"15 P. Griegas","labelLayerName":"Label 'Orchomernos' (Pinned)","mapcompName":"Roman Kingdom","GEOlayersTextLayerTexts":["Orchomernos"],"GEOlayersNamingProp":"name"},"bbox":[22.9783129692078,38.4945782415556,22.9783139692078,38.4945782415556]},{"type":"Feature","geometry":{"type":"Point","coordinates":[23.4121227264404,38.4439595097938]},"properties":{"name":"Peteon","comp":"containing Roman Kingdom","lat":38.4439595097938,"lon":23.4121227264404,"GEOlayersDisplayName":"Peteon"},"bbox":[23.4121227264404,38.4439595097938,23.412123726440402,38.4439595097938]},{"type":"Feature","geometry":{"type":"Point","coordinates":[23.273549079895,38.2210799158826]},"properties":{"name":"Plataiai","comp":"containing Roman Kingdom","lat":38.2210799158826,"lon":23.273549079895,"GEOlayersDisplayName":"Plataiai"},"bbox":[23.273549079895,38.2210799158826,23.273550079895003,38.2210799158826]},{"type":"Feature","geometry":{"type":"Point","coordinates":[23.0528140068054,38.1899200760076]},"properties":{"name":"Siphai","comp":"containing Roman Kingdom","lat":38.1899200760076,"lon":23.0528140068054,"GEOlayersDisplayName":"Siphai"},"bbox":[23.0528140068054,38.1899200760076,23.0528150068054,38.1899200760076]},{"type":"Feature","geometry":{"type":"Point","coordinates":[23.581166267395,38.3002009550042]},"properties":{"name":"Tanagra","comp":"containing Roman Kingdom","lat":38.3002009550042,"lon":23.581166267395,"GEOlayersDisplayName":"Tanagra"},"bbox":[23.581166267395,38.3002009550042,23.581167267395003,38.3002009550042]},{"type":"Feature","geometry":{"type":"Point","coordinates":[23.3176445960999,38.319950914191]},"properties":{"name":"Tebas","comp":"containing Roman Kingdom","lat":38.319950914191,"lon":23.3176445960999,"GEOlayersDisplayName":"Tebas","GEOlayersLabelTemplateCompId":7497,"GEOlayersLabelTemplateCompName":"15 P. Griegas","labelLayerName":"Label 'Tebas' (Pinned)","mapcompName":"Roman Kingdom","GEOlayersTextLayerTexts":["Tebas"],"GEOlayersNamingProp":"name"},"bbox":[23.3176445960999,38.319950914191,23.3176455960999,38.319950914191]},{"type":"Feature","geometry":{"type":"Point","coordinates":[22.9677987098694,38.2608870863323]},"properties":{"name":"Thisbe","comp":"containing Roman Kingdom","lat":38.2608870863323,"lon":22.9677987098694,"GEOlayersDisplayName":"Thisbe"},"bbox":[22.9677987098694,38.2608870863323,22.9677997098694,38.2608870863323]}],"properties":{"name":"Polis Beocia"}}