{
"type": "FeatureCollection",
"name": "Poleis_Beocia",
"crs": { "type": "name", "properties": { "name": "urn:ogc:def:crs:OGC:1.3:CRS84" } },
"features": [
{ "type": "Feature", "properties": { "name": "Thespiai", "lat": 38.2945258460229, "lon": 23.152356147766099, "nota": null }, "geometry": { "type": "Point", "coordinates": [ 23.152356147766099, 38.2945258460229 ] } },
{ "type": "Feature", "properties": { "name": "Haliartos", "lat": 38.378319045217999, "lon": 23.086609840393098, "nota": null }, "geometry": { "type": "Point", "coordinates": [ 23.086609840393098, 38.378319045217999 ] } },
{ "type": "Feature", "properties": { "name": "Askra", "lat": 38.328216350466597, "lon": 23.075387477874798, "nota": null }, "geometry": { "type": "Point", "coordinates": [ 23.075387477874798, 38.328216350466597 ] } },
{ "type": "Feature", "properties": { "name": "Akraiphiai", "lat": 38.451336969447702, "lon": 23.218960762023901, "nota": null }, "geometry": { "type": "Point", "coordinates": [ 23.218960762023901, 38.451336969447702 ] } },
{ "type": "Feature", "properties": { "name": "Anthedon", "lat": 38.497693500740297, "lon": 23.451647758483901, "nota": null }, "geometry": { "type": "Point", "coordinates": [ 23.451647758483901, 38.497693500740297 ] } },
{ "type": "Feature", "properties": { "name": "Aspledon", "lat": 38.5409992740408, "lon": 22.9927110671997, "nota": null }, "geometry": { "type": "Point", "coordinates": [ 22.9927110671997, 38.5409992740408 ] } },
{ "type": "Feature", "properties": { "name": "Chorsiai", "lat": 38.251190099523299, "lon": 22.8873753547668, "nota": null }, "geometry": { "type": "Point", "coordinates": [ 22.8873753547668, 38.251190099523299 ] } },
{ "type": "Feature", "properties": { "name": "coronea", "lat": 38.391202997869797, "lon": 22.957112789154099, "nota": null }, "geometry": { "type": "Point", "coordinates": [ 22.957112789154099, 38.391202997869797 ] } },
{ "type": "Feature", "properties": { "name": "Eutresis", "lat": 38.268249529006297, "lon": 23.204669952392599, "nota": null }, "geometry": { "type": "Point", "coordinates": [ 23.204669952392599, 38.268249529006297 ] } },
{ "type": "Feature", "properties": { "name": "Hylai", "lat": 38.408010918249303, "lon": 23.2643222808838, "nota": null }, "geometry": { "type": "Point", "coordinates": [ 23.2643222808838, 38.408010918249303 ] } },
{ "type": "Feature", "properties": { "name": "Kreusis", "lat": 38.208275308212897, "lon": 23.112101554870598, "nota": null }, "geometry": { "type": "Point", "coordinates": [ 23.112101554870598, 38.208275308212897 ] } },
{ "type": "Feature", "properties": { "name": "Lebadeia", "lat": 38.433631480126202, "lon": 22.8707242012024, "nota": null }, "geometry": { "type": "Point", "coordinates": [ 22.8707242012024, 38.433631480126202 ] } },
{ "type": "Feature", "properties": { "name": "Leuktra", "lat": 38.254408530536402, "lon": 23.1821179389954, "nota": null }, "geometry": { "type": "Point", "coordinates": [ 23.1821179389954, 38.254408530536402 ] } },
{ "type": "Feature", "properties": { "name": "Orchomernos", "lat": 38.494578241555601, "lon": 22.978312969207799, "nota": null }, "geometry": { "type": "Point", "coordinates": [ 22.978312969207799, 38.494578241555601 ] } },
{ "type": "Feature", "properties": { "name": "Peteon", "lat": 38.4439595097938, "lon": 23.412122726440401, "nota": null }, "geometry": { "type": "Point", "coordinates": [ 23.412122726440401, 38.4439595097938 ] } },
{ "type": "Feature", "properties": { "name": "Plataiai", "lat": 38.221079915882598, "lon": 23.273549079895002, "nota": null }, "geometry": { "type": "Point", "coordinates": [ 23.273549079895002, 38.221079915882598 ] } },
{ "type": "Feature", "properties": { "name": "Siphai", "lat": 38.189920076007603, "lon": 23.052814006805399, "nota": null }, "geometry": { "type": "Point", "coordinates": [ 23.052814006805399, 38.189920076007603 ] } },
{ "type": "Feature", "properties": { "name": "Tanagra", "lat": 38.3002009550042, "lon": 23.581166267395002, "nota": null }, "geometry": { "type": "Point", "coordinates": [ 23.581166267395002, 38.3002009550042 ] } },
{ "type": "Feature", "properties": { "name": "Tebas", "lat": 38.319950914190997, "lon": 23.3176445960999, "nota": null }, "geometry": { "type": "Point", "coordinates": [ 23.3176445960999, 38.319950914190997 ] } },
{ "type": "Feature", "properties": { "name": "Thisbe", "lat": 38.260887086332303, "lon": 22.967798709869399, "nota": null }, "geometry": { "type": "Point", "coordinates": [ 22.967798709869399, 38.260887086332303 ] } },
{ "type": "Feature", "properties": { "name": "Delion", "lat": 38.3462075, "lon": 23.661354, "nota": null }, "geometry": { "type": "Point", "coordinates": [ 23.661354, 38.3462075 ] } },
{ "type": "Feature", "properties": { "name": "Oinophyta", "lat": 38.306286, "lon": 23.638135, "nota": null }, "geometry": { "type": "Point", "coordinates": [ 23.638135, 38.306286 ] } }
]
}
