{"type":"FeatureCollection","features":[{"type":"Feature","geometry":{"type":"Point","coordinates":[26.7914915084839,39.5784958646556]},"properties":{"name":"Antandros","comp":"containing Roman Kingdom","lat":39.5784958646556,"lon":26.7914915084839},"bbox":[26.7914915084839,39.5784958646556,26.791492508483902,39.5784958646556]},{"type":"Feature","geometry":{"type":"Point","coordinates":[27.1841669082642,39.1324986993126]},"properties":{"name":"Pergamon","comp":"containing Roman Kingdom","lat":39.1324986993126,"lon":27.1841669082642},"bbox":[27.1841669082642,39.1324986993126,27.1841679082642,39.1324986993126]},{"type":"FeatureCollection","features":[{"type":"Feature","geometry":{"type":"Point","coordinates":[36.3312935829163,41.2927211870104]},"properties":{"name":"Amisos","comp":"containing World Mapcomp","lat":41.2927211870104,"lon":36.3312935829163,"GEOlayersNamingProp":"name"},"bbox":[36.3312935829163,41.2927211870104,36.3312945829163,41.2927211870104]},{"type":"Feature","geometry":{"type":"Point","coordinates":[27.6942801475525,42.4203597981491]},"properties":{"name":"Apollonia Pontica","comp":"containing Roman Kingdom","lat":42.4203597981491,"lon":27.6942801475525,"GEOlayersDisplayName":"Apollonia Pontica","GEOlayersLabelTemplateCompId":112,"GEOlayersLabelTemplateCompName":"06 Place Top 2","labelLayerName":"Label 'Apollonia Pontica' 1 (Pinned)","mapcompName":"World Mapcomp","GEOlayersTextLayerTexts":["Apollonia Pontica"],"GEOlayersNamingProp":"name"},"bbox":[27.6942801475525,42.4203597981491,27.694281147552502,42.4203597981491]},{"type":"Feature","geometry":{"type":"Point","coordinates":[41.0111689567566,42.9983307888331]},"properties":{"name":"Dioskurias","comp":"containing Roman Kingdom","lat":42.9983307888331,"lon":41.0111689567566,"GEOlayersDisplayName":"Dioskurias","GEOlayersLabelTemplateCompId":112,"GEOlayersLabelTemplateCompName":"06 Place Top 2","labelLayerName":"Label 'Dioskurias' 1 (Pinned)","mapcompName":"World Mapcomp","GEOlayersTextLayerTexts":["Dioskurias"],"GEOlayersNamingProp":"name"},"bbox":[41.0111689567566,42.9983307888331,41.011169956756596,42.9983307888331]},{"type":"Feature","geometry":{"type":"Point","coordinates":[33.4922504425049,44.6110927730263]},"properties":{"name":"Herakleia Cherronesus","comp":"containing Roman Kingdom","lat":44.6110927730263,"lon":33.4922504425049,"GEOlayersDisplayName":"Herakleia Cherronesus","GEOlayersLabelTemplateCompId":112,"GEOlayersLabelTemplateCompName":"06 Place Top 2","labelLayerName":"Label 'Herakleia Cherronesus' 1 (Pinned)","mapcompName":"World Mapcomp","GEOlayersTextLayerTexts":["Herakleia Cherronesus"],"GEOlayersNamingProp":"name"},"bbox":[33.4922504425049,44.6110927730263,33.492251442504894,44.6110927730263]},{"type":"Feature","geometry":{"type":"Point","coordinates":[28.7748026847839,44.5475960191794]},"properties":{"name":"Histria","comp":"containing World Mapcomp","lat":44.5475960191794,"lon":28.7748026847839,"GEOlayersNamingProp":"name"},"bbox":[28.7748026847839,44.5475960191794,28.7748036847839,44.5475960191794]},{"type":"Feature","geometry":{"type":"Point","coordinates":[28.5827565193176,43.8171498143825]},"properties":{"name":"Kallatis","comp":"containing World Mapcomp","lat":43.8171498143825,"lon":28.5827565193176,"GEOlayersNamingProp":"name"},"bbox":[28.5827565193176,43.8171498143825,28.5827575193176,43.8171498143825]},{"type":"Feature","geometry":{"type":"Point","coordinates":[38.3979249000549,40.9191310227093]},"properties":{"name":"Kerasous","comp":"containing World Mapcomp","lat":40.9191310227093,"lon":38.3979249000549,"GEOlayersNamingProp":"name"},"bbox":[38.3979249000549,40.9191310227093,38.3979259000549,40.9191310227093]},{"type":"Feature","geometry":{"type":"Point","coordinates":[37.8703665733337,40.9984274066773]},"properties":{"name":"Kotyora","comp":"containing World Mapcomp","lat":40.9984274066773,"lon":37.8703665733337,"GEOlayersNamingProp":"name"},"bbox":[37.8703665733337,40.9984274066773,37.870367573333695,40.9984274066773]},{"type":"Feature","geometry":{"type":"Point","coordinates":[32.8978085517883,41.8619304927826]},"properties":{"name":"Kytoros","comp":"containing World Mapcomp","lat":41.8619304927826,"lon":32.8978085517883,"GEOlayersNamingProp":"name"},"bbox":[32.8978085517883,41.8619304927826,32.8978095517883,41.8619304927826]},{"type":"Feature","geometry":{"type":"Point","coordinates":[27.724449634552,42.6595825339218]},"properties":{"name":"Mesembria","comp":"containing World Mapcomp","lat":42.6595825339218,"lon":27.724449634552,"GEOlayersNamingProp":"name"},"bbox":[27.724449634552,42.6595825339218,27.724450634552,42.6595825339218]},{"type":"Feature","geometry":{"type":"Point","coordinates":[27.9134702682495,43.2061611697766]},"properties":{"name":"Odessus","comp":"containing Roman Kingdom","lat":43.2061611697766,"lon":27.9134702682495,"GEOlayersDisplayName":"Odessus","GEOlayersLabelTemplateCompId":112,"GEOlayersLabelTemplateCompName":"06 Place Top 2","labelLayerName":"Label 'Odessus' 1 (Pinned)","mapcompName":"World Mapcomp","GEOlayersTextLayerTexts":["Odessus"],"GEOlayersNamingProp":"name"},"bbox":[27.9134702682495,43.2061611697766,27.913471268249502,43.2061611697766]},{"type":"Feature","geometry":{"type":"Point","coordinates":[31.9058632850647,46.6923860441856]},"properties":{"name":"Olbia","comp":"containing Roman Kingdom","lat":46.6923860441856,"lon":31.9058632850647,"GEOlayersDisplayName":"Olbia","GEOlayersLabelTemplateCompId":112,"GEOlayersLabelTemplateCompName":"06 Place Top 2","labelLayerName":"Label 'Olbia' 1 (Pinned)","mapcompName":"World Mapcomp","GEOlayersTextLayerTexts":["Olbia"],"GEOlayersNamingProp":"name"},"bbox":[31.9058632850647,46.6923860441856,31.905864285064702,46.6923860441856]},{"type":"Feature","geometry":{"type":"Point","coordinates":[36.4685797691345,45.3509841258684]},"properties":{"name":"Pantikapaion","comp":"containing Roman Kingdom","lat":45.3509841258684,"lon":36.4685797691345,"GEOlayersDisplayName":"Pantikapaion","GEOlayersLabelTemplateCompId":112,"GEOlayersLabelTemplateCompName":"06 Place Top 2","labelLayerName":"Label 'Pantikapaion' 1 (Pinned)","mapcompName":"World Mapcomp","GEOlayersTextLayerTexts":["Pantikapaion"],"GEOlayersNamingProp":"name"},"bbox":[36.4685797691345,45.3509841258684,36.4685807691345,45.3509841258684]},{"type":"Feature","geometry":{"type":"Point","coordinates":[36.9596600532532,45.2762529612439]},"properties":{"name":"Phanagoria","comp":"containing Roman Kingdom","lat":45.2762529612439,"lon":36.9596600532532,"GEOlayersDisplayName":"Phanagoria","GEOlayersLabelTemplateCompId":112,"GEOlayersLabelTemplateCompName":"06 Place Top 2","labelLayerName":"Label 'Phanagoria' 1 (Pinned)","mapcompName":"World Mapcomp","GEOlayersTextLayerTexts":["Phanagoria"],"GEOlayersNamingProp":"name"},"bbox":[36.9596600532532,45.2762529612439,36.9596610532532,45.2762529612439]},{"type":"Feature","geometry":{"type":"Point","coordinates":[41.6923213005066,42.1358656277079]},"properties":{"name":"Phasis","comp":"containing Roman Kingdom","lat":42.1358656277079,"lon":41.6923213005066,"GEOlayersDisplayName":"Phasis","GEOlayersLabelTemplateCompId":112,"GEOlayersLabelTemplateCompName":"06 Place Top 2","labelLayerName":"Label 'Phasis' 1 (Pinned)","mapcompName":"World Mapcomp","GEOlayersTextLayerTexts":["Phasis"],"GEOlayersNamingProp":"name"},"bbox":[41.6923213005066,42.1358656277079,41.692322300506596,42.1358656277079]},{"type":"Feature","geometry":{"type":"Point","coordinates":[40.3332996368408,43.1615932498067]},"properties":{"name":"Pytious","comp":"containing World Mapcomp","lat":43.1615932498067,"lon":40.3332996368408,"GEOlayersNamingProp":"name"},"bbox":[40.3332996368408,43.1615932498067,40.3333006368408,43.1615932498067]},{"type":"Feature","geometry":{"type":"Point","coordinates":[32.3856568336487,41.7469659833854]},"properties":{"name":"Sesamos","comp":"containing World Mapcomp","lat":41.7469659833854,"lon":32.3856568336487,"GEOlayersNamingProp":"name"},"bbox":[32.3856568336487,41.7469659833854,32.3856578336487,41.7469659833854]},{"type":"Feature","geometry":{"type":"Point","coordinates":[39.3356680870056,47.268688363577]},"properties":{"name":"Tanais","comp":"containing Roman Kingdom","lat":47.268688363577,"lon":39.3356680870056,"GEOlayersDisplayName":"Tanais","GEOlayersLabelTemplateCompId":7,"GEOlayersLabelTemplateCompName":"01 Place Top","labelLayerName":"Label 'Tanais' (Pinned)","mapcompName":"World Mapcomp","GEOlayersTextLayerTexts":["Tanais"],"GEOlayersNamingProp":"name"},"bbox":[39.3356680870056,47.268688363577,39.3356690870056,47.268688363577]},{"type":"Feature","geometry":{"type":"Point","coordinates":[35.3787660598755,45.0460864008463]},"properties":{"name":"Theodosia","comp":"containing World Mapcomp","lat":45.0460864008463,"lon":35.3787660598755,"GEOlayersNamingProp":"name"},"bbox":[35.3787660598755,45.0460864008463,35.3787670598755,45.0460864008463]},{"type":"Feature","geometry":{"type":"Point","coordinates":[28.6497473716736,44.1728550804281]},"properties":{"name":"Tomis","comp":"containing World Mapcomp","lat":44.1728550804281,"lon":28.6497473716736,"GEOlayersNamingProp":"name"},"bbox":[28.6497473716736,44.1728550804281,28.649748371673603,44.1728550804281]},{"type":"Feature","geometry":{"type":"Point","coordinates":[39.72332239151,41.004265336429]},"properties":{"name":"Trapezus","comp":"containing World Mapcomp","lat":41.004265336429,"lon":39.72332239151,"GEOlayersNamingProp":"name"},"bbox":[39.72332239151,41.004265336429,39.72332339151,41.004265336429]},{"type":"Feature","geometry":{"type":"Point","coordinates":[30.3501391410828,46.2007528370725]},"properties":{"name":"Tyras","comp":"containing World Mapcomp","lat":46.2007528370725,"lon":30.3501391410828,"GEOlayersNamingProp":"name"},"bbox":[30.3501391410828,46.2007528370725,30.3501401410828,46.2007528370725]}],"properties":{"lat":44.09390969314315,"lon":34.69330122402955,"GEOlayersSrcRequireType":"geojson","GEOlayersNamingProp":"name","GEOlayersRenamed":"Polis Pontus"},"bbox":[27.6942801475525,40.9191310227093,41.692322300506596,47.268688363577]},{"type":"Feature","geometry":{"type":"Point","coordinates":[39.72332239151,41.004265336429]},"properties":{"name":"Trapezus","comp":"containing World Mapcomp","lat":41.004265336429,"lon":39.72332239151},"bbox":[39.72332239151,41.004265336429,39.72332339151,41.004265336429]},{"type":"Feature","geometry":{"type":"Point","coordinates":[38.3979249000549,40.9191310227093]},"properties":{"name":"Kerasous","comp":"containing World Mapcomp","lat":40.9191310227093,"lon":38.3979249000549},"bbox":[38.3979249000549,40.9191310227093,38.3979259000549,40.9191310227093]},{"type":"Feature","geometry":{"type":"Point","coordinates":[37.8703665733337,40.9984274066773]},"properties":{"name":"Kotyora","comp":"containing World Mapcomp","lat":40.9984274066773,"lon":37.8703665733337},"bbox":[37.8703665733337,40.9984274066773,37.870367573333695,40.9984274066773]},{"type":"Feature","geometry":{"type":"Point","coordinates":[36.3312935829163,41.2927211870104]},"properties":{"name":"Amisos","comp":"containing World Mapcomp","lat":41.2927211870104,"lon":36.3312935829163},"bbox":[36.3312935829163,41.2927211870104,36.3312945829163,41.2927211870104]},{"type":"Feature","geometry":{"type":"Point","coordinates":[32.8978085517883,41.8619304927826]},"properties":{"name":"Kytoros","comp":"containing World Mapcomp","lat":41.8619304927826,"lon":32.8978085517883},"bbox":[32.8978085517883,41.8619304927826,32.8978095517883,41.8619304927826]},{"type":"Feature","geometry":{"type":"Point","coordinates":[32.3856568336487,41.7469659833854]},"properties":{"name":"Sesamos","comp":"containing World Mapcomp","lat":41.7469659833854,"lon":32.3856568336487},"bbox":[32.3856568336487,41.7469659833854,32.3856578336487,41.7469659833854]},{"type":"Feature","geometry":{"type":"Point","coordinates":[28.6497473716736,44.1728550804281]},"properties":{"name":"Tomis","comp":"containing World Mapcomp","lat":44.1728550804281,"lon":28.6497473716736},"bbox":[28.6497473716736,44.1728550804281,28.649748371673603,44.1728550804281]},{"type":"Feature","geometry":{"type":"Point","coordinates":[27.724449634552,42.6595825339218]},"properties":{"name":"Mesembria","comp":"containing World Mapcomp","lat":42.6595825339218,"lon":27.724449634552},"bbox":[27.724449634552,42.6595825339218,27.724450634552,42.6595825339218]},{"type":"Feature","geometry":{"type":"Point","coordinates":[28.5827565193176,43.8171498143825]},"properties":{"name":"Kallatis","comp":"containing World Mapcomp","lat":43.8171498143825,"lon":28.5827565193176},"bbox":[28.5827565193176,43.8171498143825,28.5827575193176,43.8171498143825]},{"type":"Feature","geometry":{"type":"Point","coordinates":[28.7748026847839,44.5475960191794]},"properties":{"name":"Histria","comp":"containing World Mapcomp","lat":44.5475960191794,"lon":28.7748026847839},"bbox":[28.7748026847839,44.5475960191794,28.7748036847839,44.5475960191794]},{"type":"Feature","geometry":{"type":"Point","coordinates":[36.9596600532532,45.2762529612439]},"properties":{"name":"Phanagoria","comp":"containing Roman Kingdom","lat":45.2762529612439,"lon":36.9596600532532,"GEOlayersDisplayName":"Phanagoria","GEOlayersLabelTemplateCompId":112,"GEOlayersLabelTemplateCompName":"06 Place Top 2","labelLayerName":"Label 'Phanagoria' 1 (Pinned)","mapcompName":"World Mapcomp","GEOlayersTextLayerTexts":["Phanagoria"]},"bbox":[36.9596600532532,45.2762529612439,36.9596610532532,45.2762529612439]},{"type":"Feature","geometry":{"type":"Point","coordinates":[36.4685797691345,45.3509841258684]},"properties":{"name":"Pantikapaion","comp":"containing Roman Kingdom","lat":45.3509841258684,"lon":36.4685797691345,"GEOlayersDisplayName":"Pantikapaion","GEOlayersLabelTemplateCompId":112,"GEOlayersLabelTemplateCompName":"06 Place Top 2","labelLayerName":"Label 'Pantikapaion' 1 (Pinned)","mapcompName":"World Mapcomp","GEOlayersTextLayerTexts":["Pantikapaion"]},"bbox":[36.4685797691345,45.3509841258684,36.4685807691345,45.3509841258684]},{"type":"Feature","geometry":{"type":"Point","coordinates":[31.9058632850647,46.6923860441856]},"properties":{"name":"Olbia","comp":"containing Roman Kingdom","lat":46.6923860441856,"lon":31.9058632850647,"GEOlayersDisplayName":"Olbia","GEOlayersLabelTemplateCompId":112,"GEOlayersLabelTemplateCompName":"06 Place Top 2","labelLayerName":"Label 'Olbia' 1 (Pinned)","mapcompName":"World Mapcomp","GEOlayersTextLayerTexts":["Olbia"]},"bbox":[31.9058632850647,46.6923860441856,31.905864285064702,46.6923860441856]},{"type":"Feature","geometry":{"type":"Point","coordinates":[27.9134702682495,43.2061611697766]},"properties":{"name":"Odessus","comp":"containing Roman Kingdom","lat":43.2061611697766,"lon":27.9134702682495,"GEOlayersDisplayName":"Odessus","GEOlayersLabelTemplateCompId":112,"GEOlayersLabelTemplateCompName":"06 Place Top 2","labelLayerName":"Label 'Odessus' 1 (Pinned)","mapcompName":"World Mapcomp","GEOlayersTextLayerTexts":["Odessus"]},"bbox":[27.9134702682495,43.2061611697766,27.913471268249502,43.2061611697766]},{"type":"Feature","geometry":{"type":"Point","coordinates":[27.6942801475525,42.4203597981491]},"properties":{"name":"Apollonia Pontica","comp":"containing Roman Kingdom","lat":42.4203597981491,"lon":27.6942801475525,"GEOlayersDisplayName":"Apollonia Pontica","GEOlayersLabelTemplateCompId":112,"GEOlayersLabelTemplateCompName":"06 Place Top 2","labelLayerName":"Label 'Apollonia Pontica' 1 (Pinned)","mapcompName":"World Mapcomp","GEOlayersTextLayerTexts":["Apollonia Pontica"]},"bbox":[27.6942801475525,42.4203597981491,27.694281147552502,42.4203597981491]},{"type":"Feature","geometry":{"type":"Point","coordinates":[41.0111689567566,42.9983307888331]},"properties":{"name":"Dioskurias","comp":"containing Roman Kingdom","lat":42.9983307888331,"lon":41.0111689567566,"GEOlayersDisplayName":"Dioskurias","GEOlayersLabelTemplateCompId":112,"GEOlayersLabelTemplateCompName":"06 Place Top 2","labelLayerName":"Label 'Dioskurias' 1 (Pinned)","mapcompName":"World Mapcomp","GEOlayersTextLayerTexts":["Dioskurias"]},"bbox":[41.0111689567566,42.9983307888331,41.011169956756596,42.9983307888331]},{"type":"Feature","geometry":{"type":"Point","coordinates":[41.6923213005066,42.1358656277079]},"properties":{"name":"Phasis","comp":"containing Roman Kingdom","lat":42.1358656277079,"lon":41.6923213005066,"GEOlayersDisplayName":"Phasis","GEOlayersLabelTemplateCompId":112,"GEOlayersLabelTemplateCompName":"06 Place Top 2","labelLayerName":"Label 'Phasis' 1 (Pinned)","mapcompName":"World Mapcomp","GEOlayersTextLayerTexts":["Phasis"]},"bbox":[41.6923213005066,42.1358656277079,41.692322300506596,42.1358656277079]},{"type":"Feature","geometry":{"type":"Point","coordinates":[33.4922504425049,44.6110927730263]},"properties":{"name":"Herakleia Cherronesus","comp":"containing Roman Kingdom","lat":44.6110927730263,"lon":33.4922504425049,"GEOlayersDisplayName":"Herakleia Cherronesus","GEOlayersLabelTemplateCompId":112,"GEOlayersLabelTemplateCompName":"06 Place Top 2","labelLayerName":"Label 'Herakleia Cherronesus' 1 (Pinned)","mapcompName":"World Mapcomp","GEOlayersTextLayerTexts":["Herakleia Cherronesus"]},"bbox":[33.4922504425049,44.6110927730263,33.492251442504894,44.6110927730263]},{"type":"Feature","geometry":{"type":"Point","coordinates":[39.3356680870056,47.268688363577]},"properties":{"name":"Tanais","comp":"containing Roman Kingdom","lat":47.268688363577,"lon":39.3356680870056,"GEOlayersDisplayName":"Tanais","GEOlayersLabelTemplateCompId":7,"GEOlayersLabelTemplateCompName":"01 Place Top","labelLayerName":"Label 'Tanais' (Pinned)","mapcompName":"World Mapcomp","GEOlayersTextLayerTexts":["Tanais"]},"bbox":[39.3356680870056,47.268688363577,39.3356690870056,47.268688363577]},{"type":"Feature","geometry":{"type":"Point","coordinates":[36.9596600532532,45.2762529612439]},"properties":{"name":"Phanagoria","comp":"containing Roman Kingdom","lat":45.2762529612439,"lon":36.9596600532532,"GEOlayersDisplayName":"Phanagoria","GEOlayersLabelTemplateCompId":7,"GEOlayersLabelTemplateCompName":"01 Place Top","labelLayerName":"Label 'Phanagoria' (Pinned)","mapcompName":"World Mapcomp","GEOlayersTextLayerTexts":["Phanagoria"]},"bbox":[36.9596600532532,45.2762529612439,36.9596610532532,45.2762529612439]},{"type":"Feature","geometry":{"type":"Point","coordinates":[36.4685797691345,45.3509841258684]},"properties":{"name":"Pantikapaion","comp":"containing Roman Kingdom","lat":45.3509841258684,"lon":36.4685797691345,"GEOlayersDisplayName":"Pantikapaion","GEOlayersLabelTemplateCompId":7,"GEOlayersLabelTemplateCompName":"01 Place Top","labelLayerName":"Label 'Pantikapaion' (Pinned)","mapcompName":"World Mapcomp","GEOlayersTextLayerTexts":["Pantikapaion"]},"bbox":[36.4685797691345,45.3509841258684,36.4685807691345,45.3509841258684]},{"type":"Feature","geometry":{"type":"Point","coordinates":[31.9058632850647,46.6923860441856]},"properties":{"name":"Olbia","comp":"containing Roman Kingdom","lat":46.6923860441856,"lon":31.9058632850647,"GEOlayersDisplayName":"Olbia","GEOlayersLabelTemplateCompId":7,"GEOlayersLabelTemplateCompName":"01 Place Top","labelLayerName":"Label 'Olbia' (Pinned)","mapcompName":"World Mapcomp","GEOlayersTextLayerTexts":["Olbia"]},"bbox":[31.9058632850647,46.6923860441856,31.905864285064702,46.6923860441856]},{"type":"Feature","geometry":{"type":"Point","coordinates":[27.9134702682495,43.2061611697766]},"properties":{"name":"Odessus","comp":"containing Roman Kingdom","lat":43.2061611697766,"lon":27.9134702682495,"GEOlayersDisplayName":"Odessus","GEOlayersLabelTemplateCompId":7,"GEOlayersLabelTemplateCompName":"01 Place Top","labelLayerName":"Label 'Odessus' (Pinned)","mapcompName":"World Mapcomp","GEOlayersTextLayerTexts":["Odessus"]},"bbox":[27.9134702682495,43.2061611697766,27.913471268249502,43.2061611697766]},{"type":"Feature","geometry":{"type":"Point","coordinates":[27.6942801475525,42.4203597981491]},"properties":{"name":"Apollonia Pontica","comp":"containing Roman Kingdom","lat":42.4203597981491,"lon":27.6942801475525,"GEOlayersDisplayName":"Apollonia Pontica","GEOlayersLabelTemplateCompId":7,"GEOlayersLabelTemplateCompName":"01 Place Top","labelLayerName":"Label 'Apollonia Pontica' (Pinned)","mapcompName":"World Mapcomp","GEOlayersTextLayerTexts":["Apollonia Pontica"]},"bbox":[27.6942801475525,42.4203597981491,27.694281147552502,42.4203597981491]},{"type":"Feature","geometry":{"type":"Point","coordinates":[41.0111689567566,42.9983307888331]},"properties":{"name":"Dioskurias","comp":"containing Roman Kingdom","lat":42.9983307888331,"lon":41.0111689567566,"GEOlayersDisplayName":"Dioskurias","GEOlayersLabelTemplateCompId":7,"GEOlayersLabelTemplateCompName":"01 Place Top","labelLayerName":"Label 'Dioskurias' (Pinned)","mapcompName":"World Mapcomp","GEOlayersTextLayerTexts":["Dioskurias"]},"bbox":[41.0111689567566,42.9983307888331,41.011169956756596,42.9983307888331]},{"type":"Feature","geometry":{"type":"Point","coordinates":[41.6923213005066,42.1358656277079]},"properties":{"name":"Phasis","comp":"containing Roman Kingdom","lat":42.1358656277079,"lon":41.6923213005066,"GEOlayersDisplayName":"Phasis","GEOlayersLabelTemplateCompId":7,"GEOlayersLabelTemplateCompName":"01 Place Top","labelLayerName":"Label 'Phasis' (Pinned)","mapcompName":"World Mapcomp","GEOlayersTextLayerTexts":["Phasis"]},"bbox":[41.6923213005066,42.1358656277079,41.692322300506596,42.1358656277079]},{"type":"Feature","geometry":{"type":"Point","coordinates":[33.4922504425049,44.6110927730263]},"properties":{"name":"Herakleia Cherronesus","comp":"containing Roman Kingdom","lat":44.6110927730263,"lon":33.4922504425049,"GEOlayersDisplayName":"Herakleia Cherronesus","GEOlayersLabelTemplateCompId":7,"GEOlayersLabelTemplateCompName":"01 Place Top","labelLayerName":"Label 'Herakleia Cherronesus' (Pinned)","mapcompName":"World Mapcomp","GEOlayersTextLayerTexts":["Herakleia Cherronesus"]},"bbox":[33.4922504425049,44.6110927730263,33.492251442504894,44.6110927730263]},{"type":"Feature","geometry":{"type":"Point","coordinates":[30.3501391410828,46.2007528370725]},"properties":{"name":"Tyras","comp":"containing World Mapcomp","lat":46.2007528370725,"lon":30.3501391410828},"bbox":[30.3501391410828,46.2007528370725,30.3501401410828,46.2007528370725]},{"type":"Feature","geometry":{"type":"Point","coordinates":[35.3787660598755,45.0460864008463]},"properties":{"name":"Theodosia","comp":"containing World Mapcomp","lat":45.0460864008463,"lon":35.3787660598755},"bbox":[35.3787660598755,45.0460864008463,35.3787670598755,45.0460864008463]},{"type":"Feature","geometry":{"type":"Point","coordinates":[40.3332996368408,43.1615932498067]},"properties":{"name":"Pytious","comp":"containing World Mapcomp","lat":43.1615932498067,"lon":40.3332996368408},"bbox":[40.3332996368408,43.1615932498067,40.3333006368408,43.1615932498067]}],"properties":{"lat":44.09390969314315,"lon":34.69330122402955,"GEOlayersRenamed":"Polis Pontus","GEOlayersSrcRequireType":"geojson"},"bbox":[27.6942801475525,40.9191310227093,41.692322300506596,47.268688363577]}