{"type":"FeatureCollection","features":[{"type":"Feature","geometry":{"type":"Point","coordinates":[35.4851961135864,36.75618947614]},"properties":{"name":"Mallos","comp":"containing World Mapcomp","lat":36.75618947614,"lon":35.4851961135864},"bbox":[35.4851961135864,36.75618947614,35.485197113586395,36.75618947614]},{"type":"Feature","geometry":{"type":"Point","coordinates":[33.323700428009,36.1442602764257]},"properties":{"name":"Kelenderis","comp":"containing World Mapcomp","lat":36.1442602764257,"lon":33.323700428009},"bbox":[33.323700428009,36.1442602764257,33.323701428008995,36.1442602764257]},{"type":"Feature","geometry":{"type":"Point","coordinates":[31.3866949081421,36.7642433434677]},"properties":{"name":"Side","comp":"containing World Mapcomp","lat":36.7642433434677,"lon":31.3866949081421},"bbox":[31.3866949081421,36.7642433434677,31.3866959081421,36.7642433434677]},{"type":"Feature","geometry":{"type":"Point","coordinates":[31.1699938774109,36.939019086448]},"properties":{"name":"Aspendos","comp":"containing World Mapcomp","lat":36.939019086448,"lon":31.1699938774109},"bbox":[31.1699938774109,36.939019086448,31.1699948774109,36.939019086448]},{"type":"Feature","geometry":{"type":"Point","coordinates":[30.5521631240845,36.5234926804792]},"properties":{"name":"Phaselis","comp":"containing World Mapcomp","lat":36.5234926804792,"lon":30.5521631240845},"bbox":[30.5521631240845,36.5234926804792,30.552164124084502,36.5234926804792]},{"type":"Feature","geometry":{"type":"Point","coordinates":[27.4221539497375,37.0403972975601]},"properties":{"name":"Halikarnassos","comp":"containing World Mapcomp","lat":37.0403972975601,"lon":27.4221539497375},"bbox":[27.4221539497375,37.0403972975601,27.4221549497375,37.0403972975601]},{"type":"Feature","geometry":{"type":"Point","coordinates":[27.2788166999817,37.5304634131864]},"properties":{"name":"Mileto","comp":"containing World Mapcomp","lat":37.5304634131864,"lon":27.2788166999817},"bbox":[27.2788166999817,37.5304634131864,27.2788176999817,37.5304634131864]},{"type":"Feature","geometry":{"type":"Point","coordinates":[27.3403143882751,37.9407623083171]},"properties":{"name":"Ephesos","comp":"containing World Mapcomp","lat":37.9407623083171,"lon":27.3403143882751},"bbox":[27.3403143882751,37.9407623083171,27.3403153882751,37.9407623083171]},{"type":"Feature","geometry":{"type":"Point","coordinates":[27.1483111381531,38.1082562197819]},"properties":{"name":"Colophon","comp":"containing World Mapcomp","lat":38.1082562197819,"lon":27.1483111381531},"bbox":[27.1483111381531,38.1082562197819,27.148312138153102,38.1082562197819]},{"type":"Feature","geometry":{"type":"Point","coordinates":[27.1413803100586,38.417190983061]},"properties":{"name":"Smyrna","comp":"containing World Mapcomp","lat":38.417190983061,"lon":27.1413803100586},"bbox":[27.1413803100586,38.417190983061,27.141381310058602,38.417190983061]},{"type":"Feature","geometry":{"type":"Point","coordinates":[26.7565584182739,38.67029949586]},"properties":{"name":"Phocaea","comp":"containing World Mapcomp","lat":38.67029949586,"lon":26.7565584182739},"bbox":[26.7565584182739,38.67029949586,26.756559418273902,38.67029949586]},{"type":"Feature","geometry":{"type":"Point","coordinates":[26.9374465942383,38.9282922109911]},"properties":{"name":"Pitane","comp":"containing World Mapcomp","lat":38.9282922109911,"lon":26.9374465942383},"bbox":[26.9374465942383,38.9282922109911,26.9374475942383,38.9282922109911]},{"type":"Feature","geometry":{"type":"Point","coordinates":[26.3363528251648,39.4901320181202]},"properties":{"name":"Assos","comp":"containing World Mapcomp","lat":39.4901320181202,"lon":26.3363528251648},"bbox":[26.3363528251648,39.4901320181202,26.3363538251648,39.4901320181202]},{"type":"Feature","geometry":{"type":"Point","coordinates":[26.411304473877,40.1942167286312]},"properties":{"name":"Abydos","comp":"containing World Mapcomp","lat":40.1942167286312,"lon":26.411304473877},"bbox":[26.411304473877,40.1942167286312,26.411305473877,40.1942167286312]},{"type":"Feature","geometry":{"type":"Point","coordinates":[26.6991591453552,40.3466831283988]},"properties":{"name":"Pityoussa","comp":"containing World Mapcomp","lat":40.3466831283988,"lon":26.6991591453552},"bbox":[26.6991591453552,40.3466831283988,26.6991601453552,40.3466831283988]},{"type":"Feature","geometry":{"type":"Point","coordinates":[27.8831934928894,40.3855611899871]},"properties":{"name":"Kyzikos","comp":"containing World Mapcomp","lat":40.3855611899871,"lon":27.8831934928894},"bbox":[27.8831934928894,40.3855611899871,27.8831944928894,40.3855611899871]},{"type":"Feature","geometry":{"type":"Point","coordinates":[29.5833277702332,40.7499960847849]},"properties":{"name":"Astakos","comp":"containing World Mapcomp","lat":40.7499960847849,"lon":29.5833277702332},"bbox":[29.5833277702332,40.7499960847849,29.5833287702332,40.7499960847849]},{"type":"Feature","geometry":{"type":"Point","coordinates":[29.0257930755615,40.9833970145362]},"properties":{"name":"Chalcedon","comp":"containing World Mapcomp","lat":40.9833970145362,"lon":29.0257930755615},"bbox":[29.0257930755615,40.9833970145362,29.0257940755615,40.9833970145362]}],"properties":{"GEOlayersRenamed":"Polis Asia menor","GEOlayersSrcRequireType":"geojson"},"bbox":[20.5529093742371,36.1442602764257,35.485197113586395,40.9833970145362]}