{
"type": "FeatureCollection",
"name": "Poleis_Atica",
"crs": { "type": "name", "properties": { "name": "urn:ogc:def:crs:OGC:1.3:CRS84" } },
"features": [
{ "type": "Feature", "properties": { "name": "Delphinion", "lat": 38.3085949238992, "lon": 23.851146697998001, "nota": null }, "geometry": { "type": "Point", "coordinates": [ 23.851146697998001, 38.3085949238992 ] } },
{ "type": "Feature", "properties": { "name": "Eleutherai", "lat": 38.179446161923501, "lon": 23.3756232261658, "nota": null }, "geometry": { "type": "Point", "coordinates": [ 23.3756232261658, 38.179446161923501 ] } },
{ "type": "Feature", "properties": { "name": "Halimous", "lat": 37.903607978240302, "lon": 23.722357749939, "nota": null }, "geometry": { "type": "Point", "coordinates": [ 23.722357749939, 37.903607978240302 ] } },
{ "type": "Feature", "properties": { "name": "Anagyrous", "lat": 37.830014157988998, "lon": 23.804841041564899, "nota": null }, "geometry": { "type": "Point", "coordinates": [ 23.804841041564899, 37.830014157988998 ] } },
{ "type": "Feature", "properties": { "name": "Phaleron", "lat": 37.937310031984303, "lon": 23.706243038177501, "nota": null }, "geometry": { "type": "Point", "coordinates": [ 23.706243038177501, 37.937310031984303 ] } },
{ "type": "Feature", "properties": { "name": "Acharnai", "lat": 38.083474915998401, "lon": 23.734095096588099, "nota": null }, "geometry": { "type": "Point", "coordinates": [ 23.734095096588099, 38.083474915998401 ] } },
{ "type": "Feature", "properties": { "name": "Aixone", "lat": 37.866333242302801, "lon": 23.7548875808716, "nota": null }, "geometry": { "type": "Point", "coordinates": [ 23.7548875808716, 37.866333242302801 ] } },
{ "type": "Feature", "properties": { "name": "Atenas", "lat": 37.971817039696397, "lon": 23.723559379577601, "nota": null }, "geometry": { "type": "Point", "coordinates": [ 23.723559379577601, 37.971817039696397 ] } },
{ "type": "Feature", "properties": { "name": "Eleusis", "lat": 38.041103501130202, "lon": 23.537392616272001, "nota": null }, "geometry": { "type": "Point", "coordinates": [ 23.537392616272001, 38.041103501130202 ] } },
{ "type": "Feature", "properties": { "name": "Halai", "lat": 37.852348234615697, "lon": 23.770036697387699, "nota": null }, "geometry": { "type": "Point", "coordinates": [ 23.770036697387699, 37.852348234615697 ] } },
{ "type": "Feature", "properties": { "name": "Halykos", "lat": 37.818344540479899, "lon": 23.836834430694601, "nota": null }, "geometry": { "type": "Point", "coordinates": [ 23.836834430694601, 37.818344540479899 ] } },
{ "type": "Feature", "properties": { "name": "Hyperakria", "lat": 38.080831643995097, "lon": 23.899726867675799, "nota": null }, "geometry": { "type": "Point", "coordinates": [ 23.899726867675799, 38.080831643995097 ] } },
{ "type": "Feature", "properties": { "name": "Laureion", "lat": 37.724293221103402, "lon": 23.987123966216998, "nota": null }, "geometry": { "type": "Point", "coordinates": [ 23.987123966216998, 37.724293221103402 ] } },
{ "type": "Feature", "properties": { "name": "Oinoe", "lat": 38.167106600501398, "lon": 23.457140922546401, "nota": null }, "geometry": { "type": "Point", "coordinates": [ 23.457140922546401, 38.167106600501398 ] } },
{ "type": "Feature", "properties": { "name": "Piraeus", "lat": 37.937699267328597, "lon": 23.6450242996216, "nota": null }, "geometry": { "type": "Point", "coordinates": [ 23.6450242996216, 37.937699267328597 ] } },
{ "type": "Feature", "properties": { "name": "Rhamnous", "lat": 38.219284540551598, "lon": 24.026906490325899, "nota": null }, "geometry": { "type": "Point", "coordinates": [ 24.026906490325899, 38.219284540551598 ] } },
{ "type": "Feature", "properties": { "name": "Sphendale", "lat": 38.1317210507111, "lon": 23.791172504424999, "nota": null }, "geometry": { "type": "Point", "coordinates": [ 23.791172504424999, 38.1317210507111 ] } },
{ "type": "Feature", "properties": { "name": "Thorai", "lat": 37.793422842171502, "lon": 23.937621116638201, "nota": null }, "geometry": { "type": "Point", "coordinates": [ 23.937621116638201, 37.793422842171502 ] } },
{ "type": "Feature", "properties": { "name": "Marathon", "lat": 38.1465515, "lon": 23.970146, "nota": null }, "geometry": { "type": "Point", "coordinates": [ 23.970146, 38.1465515 ] } },
{ "type": "Feature", "properties": { "name": "Oropos", "lat": 38.319981233299998, "lon": 23.7902040333, "nota": null }, "geometry": { "type": "Point", "coordinates": [ 23.7902040333, 38.319981233299998 ] } }
]
}
