{"type":"FeatureCollection","features":[{"type":"Feature","properties":{"lat":37.6530351725,"lon":24.0271373432,"osm_type":"node","name":"37.6530351725,24.0271373432","GEOlayersDisplayName":"37.6530351725,24.0271373432","GEOlayersRenamed":"Sounion"},"geometry":{"type":"Point","coordinates":[24.0271373432,37.6530351725]},"bbox":[24.0271373432,37.6530351725,24.0271383432,37.6530351725]},{"type":"Feature","properties":{"lat":38.1465515,"lon":23.970146,"osm_type":"node","name":"38.1465515,23.970146","GEOlayersDisplayName":"38.1465515,23.970146","GEOlayersRenamed":"Marathon"},"geometry":{"type":"Point","coordinates":[23.970146,38.1465515]},"bbox":[23.970146,38.1465515,23.970147,38.1465515]},{"type":"Feature","properties":{"lat":37.9261547587,"lon":23.9937127427,"osm_type":"node","name":"37.9261547587,23.9937127427","GEOlayersDisplayName":"37.9261547587,23.9937127427","GEOlayersRenamed":"Brauron"},"geometry":{"type":"Point","coordinates":[23.9937127427,37.9261547587]},"bbox":[23.9937127427,37.9261547587,23.993713742700002,37.9261547587]},{"type":"Feature","properties":{"lat":37.73787,"lon":24.053634,"osm_type":"node","name":"37.73787,24.053634","GEOlayersDisplayName":"37.73787,24.053634","GEOlayersRenamed":"Thorikos"},"geometry":{"type":"Point","coordinates":[24.053634,37.73787]},"bbox":[24.053634,37.73787,24.053635,37.73787]},{"type":"Feature","properties":{"lat":38.2911363419,"lon":23.8459619987,"osm_type":"node","name":"38.2911363419,23.8459619987","GEOlayersDisplayName":"38.2911363419,23.8459619987","GEOlayersRenamed":"Amphiareion"},"geometry":{"type":"Point","coordinates":[23.8459619987,38.2911363419]},"bbox":[23.8459619987,38.2911363419,23.845962998700003,38.2911363419]}]}